[{
        "name": "Taman Indonesia Kaya",
        "description": "Taman publik dengan pepohonan rindang dan area duduk nyaman di pusat Semarang.",
        "latitude": -6.98152,
        "longitude": 110.40914,
        "photos": ["/uploads/taman_indonesia_kaya.jpg"]
    },
    {
        "name": "Simpang Lima",
        "description": "Lapangan ikonik di Semarang dengan banyak pepohonan dan area terbuka hijau.",
        "latitude": -6.99357,
        "longitude": 110.42037,
        "photos": ["/uploads/simpang_lima.jpeg"]
    },
    {
        "name": "Hutan Wisata Tinjomoyo",
        "description": "Hutan kota dengan banyak pohon besar, cocok untuk tracking ringan.",
        "latitude": -7.03834,
        "longitude": 110.39424,
        "photos": ["/uploads/tinjomoyo.jpg"]
    },
    {
        "name": "Kampung Pelangi Semarang",
        "description": "Area wisata warna-warni dengan banyak tanaman hias dan pohon rindang.",
        "latitude": -6.98389,
        "longitude": 110.41912,
        "photos": ["/uploads/kampung_pelangi.jpg"]
    },
    {
        "name": "Universitas Diponegoro (Tembalang)",
        "description": "Kampus dengan banyak area hijau dan pepohonan besar di sekitarnya.",
        "latitude": -7.05483,
        "longitude": 110.43605,
        "photos": ["/uploads/undip_tembalang.jpg"]
    }
]